City_ID,City,Lat,Lng,Max Temperature (F),Humidity (%),Cloudiness (%),Wind Speed (mph),Country,Datetime
0,Albany,42.6,-73.97,79.0,66,12,3.04,US,1592577607
1,Jamestown,42.1,-79.24,75.0,73,40,4.7,US,1592577743
2,Mataura,-46.19,168.86,39.0,83,100,3.0,NZ,1592577743
3,Barrow,71.29,-156.79,35.6,93,90,12.75,US,1592577743
4,Klaksvík,62.23,-6.59,57.2,71,84,9.17,FO,1592577744
5,Kaitong,44.81,123.15,66.2,89,100,10.22,CN,1592577744
6,Ushuaia,-54.8,-68.3,35.6,80,75,3.36,AR,1592577745
7,Provideniya,64.38,-173.3,54.1,57,15,3.15,RU,1592577745
8,Bima,-8.47,118.72,74.71,88,100,4.65,ID,1592577745
9,Rikitea,-23.12,-134.97,72.79,90,100,12.71,PF,1592577746
10,Vao,-22.67,167.48,70.14,80,22,15.7,NC,1592577746
11,Inhambane,-23.86,35.38,71.6,68,40,11.41,MZ,1592577746
12,Merauke,-8.47,140.33,78.35,79,99,16.73,ID,1592577747
13,Alvorada,-12.48,-49.12,86.58,37,0,11.01,BR,1592577747
14,Bluff,-46.6,168.33,39.0,83,100,3.0,NZ,1592577747
15,Dingle,11.0,122.67,76.32,83,90,2.73,PH,1592577747
16,Pacifica,37.61,-122.49,60.01,82,40,3.36,US,1592577459
17,Kapaa,22.08,-159.32,77.0,78,40,16.11,US,1592577748
18,Tombouctou,20.0,-3.0,109.9,12,89,14.18,ML,1592577748
19,Mahébourg,-20.41,57.7,72.0,71,96,8.99,MU,1592577749
20,Solntsevo,51.42,36.75,82.4,39,40,13.42,RU,1592577749
21,Yellowknife,62.46,-114.35,55.4,62,20,18.34,CA,1592577642
22,Severnyy,50.68,36.55,84.2,48,92,15.66,RU,1592577749
23,Khatanga,71.97,102.5,56.95,62,21,14.25,RU,1592577750
24,Qaanaaq,77.48,-69.36,35.47,83,84,2.53,GL,1592577750
25,Arona,28.1,-16.68,78.8,57,20,25.28,ES,1592577750
26,Bethel,41.37,-73.41,77.0,64,20,4.7,US,1592577751
27,Esim,4.87,-2.24,81.41,72,100,9.66,GH,1592577751
28,Ribeira Grande,38.52,-28.7,68.0,82,75,13.87,PT,1592577751
29,Lüderitz,-26.65,15.16,82.4,20,0,11.41,NA,1592577751
30,Vaini,-21.2,-175.2,73.4,83,40,8.05,TO,1592577752
31,Arraial do Cabo,-22.97,-42.03,82.4,48,62,4.7,BR,1592577752
32,Tobane,-21.95,27.9,64.4,68,75,4.7,BW,1592577752
33,Hamilton,39.18,-84.53,80.01,78,1,4.7,US,1592577753
34,Cape Town,-33.93,18.42,73.0,43,0,16.11,ZA,1592577753
35,Turukhansk,65.82,87.98,53.4,95,100,5.21,RU,1592577753
36,Verkhnevilyuysk,63.45,120.32,63.86,57,47,3.0,RU,1592577754
37,Bathsheba,13.22,-59.52,78.8,78,75,21.92,BB,1592577754
38,Farkhor,37.49,69.4,91.4,24,20,2.24,TJ,1592577754
39,Punta Arenas,-53.15,-70.92,35.6,93,90,8.05,CL,1592577502
40,Coquimbo,-29.95,-71.34,55.4,66,74,5.82,CL,1592577755
41,Hay River,60.82,-115.8,66.2,55,5,9.17,CA,1592577726
42,Chui,-33.7,-53.46,60.96,65,36,5.32,UY,1592577755
43,Carnarvon,-24.87,113.63,62.6,88,0,10.29,AU,1592577756
44,Bambous Virieux,-20.34,57.76,72.0,71,100,8.99,MU,1592577756
45,São Filipe,14.9,-24.5,80.15,64,0,5.97,CV,1592577756
46,Nikolskoye,59.7,30.79,77.0,47,20,8.95,RU,1592577757
47,Avarua,-21.21,-159.78,71.6,73,3,6.93,CK,1592577757
48,Piaçabuçu,-10.41,-36.43,81.34,72,24,15.3,BR,1592577757
49,Busselton,-33.65,115.33,48.99,77,51,8.5,AU,1592577757
50,Chokurdakh,70.63,147.92,76.05,35,25,4.99,RU,1592577758
51,Nouadhibou,20.93,-17.03,78.8,61,0,18.34,MR,1592577759
52,Belmonte,-15.86,-38.88,80.6,74,75,14.99,BR,1592577759
53,Peachland,49.77,-119.74,64.0,60,90,1.99,CA,1592577759
54,Egvekinot,66.32,-179.17,52.14,53,100,2.91,RU,1592577759
55,Ancud,-41.87,-73.82,48.0,87,20,8.05,CL,1592577759
56,Hobart,-42.88,147.33,44.01,93,75,2.24,AU,1592577732
57,Berlevåg,70.86,29.09,46.4,65,90,21.92,NO,1592577760
58,New Norfolk,-42.78,147.06,46.0,87,100,1.83,AU,1592577761
59,Bonoua,5.27,-3.6,82.4,78,40,10.29,CI,1592577761
60,Nueve de Julio,-35.44,-60.88,57.0,76,96,3.0,AR,1592577761
61,Norman Wells,65.28,-126.83,62.6,82,75,3.36,CA,1592577726
62,Narsaq,60.92,-46.05,48.2,57,75,5.82,GL,1592577762
63,Ketchikan,55.34,-131.65,55.4,100,90,8.05,US,1592577530
64,Puerto Ayora,-0.74,-90.35,71.01,92,98,5.99,EC,1592577763
65,Kaeo,-35.1,173.78,55.99,3,97,5.99,NZ,1592577763
66,Pembroke,45.82,-77.12,79.0,60,1,2.24,CA,1592577763
67,Bredasdorp,-34.53,20.04,82.4,23,0,3.94,ZA,1592577764
68,Hermanus,-34.42,19.23,75.0,35,0,11.01,ZA,1592577764
69,Lebu,-37.62,-73.65,53.71,85,12,9.73,CL,1592577764
70,Deputatsky,69.3,139.9,63.34,49,3,2.35,RU,1592577764
71,Dukat,62.55,155.55,49.82,80,28,1.1,RU,1592577765
72,Saint-Joseph,-21.37,55.62,71.6,64,94,24.16,RE,1592577765
73,Lieksa,63.32,30.02,65.89,58,21,8.52,FI,1592577765
74,Vila Franca do Campo,37.72,-25.43,68.0,72,75,10.29,PT,1592577765
75,Alekseyevka,50.63,38.69,77.23,77,95,9.53,RU,1592577766
76,Cairns,-16.92,145.77,69.8,77,40,9.17,AU,1592577608
77,East London,-33.02,27.91,68.0,60,0,5.82,ZA,1592577473
78,Mar del Plata,-38.0,-57.56,61.0,76,100,11.41,AR,1592577635
79,Lata,40.16,-8.33,77.0,50,0,1.01,PT,1592577767
80,Souillac,-20.52,57.52,72.0,71,99,8.99,MU,1592577767
81,Castro,-24.79,-50.01,70.39,64,0,8.79,BR,1592577767
82,Zhigansk,66.77,123.37,65.14,47,8,7.56,RU,1592577768
83,Tuktoyaktuk,69.45,-133.04,39.2,93,90,8.05,CA,1592577768
84,San Patricio,19.22,-104.7,80.6,78,75,4.29,MX,1592577768
85,Butaritari,3.07,172.79,81.75,73,69,4.59,KI,1592577769
86,Bull Savanna,17.89,-77.59,83.88,63,33,11.27,JM,1592577769
87,Matara,5.95,80.54,81.55,82,86,10.49,LK,1592577770
88,Saint-Philippe,-21.36,55.77,71.6,64,98,24.16,RE,1592577770
89,Santa Maria,-29.68,-53.81,73.31,79,93,5.68,BR,1592577732
90,Atuona,-9.8,-139.03,79.95,76,62,15.88,PF,1592577771
91,Biak,-0.91,122.88,77.25,83,55,7.58,ID,1592577772
92,Rocha,-34.48,-54.33,61.14,60,22,7.67,UY,1592577772
93,Hasaki,35.73,140.83,64.4,100,75,13.87,JP,1592577773
94,Pedasí,7.53,-80.03,82.63,73,98,3.15,PA,1592577773
95,Port Alfred,-33.59,26.89,68.0,74,0,8.01,ZA,1592577773
96,George Town,5.41,100.34,80.6,88,20,2.1,MY,1592577774
97,Saldanha,-33.01,17.94,77.0,29,0,12.75,ZA,1592577774
98,Kruisfontein,-34.0,24.73,68.13,32,0,10.25,ZA,1592577774
99,Artyom,40.47,50.33,86.0,37,0,11.41,AZ,1592577774
100,Tiksi,71.69,128.87,55.4,67,0,6.26,RU,1592577775
101,Longyearbyen,78.22,15.64,41.0,75,40,16.11,SJ,1592577775
102,Hofn,64.25,-15.21,55.4,66,40,11.41,IS,1592577775
103,Yining,29.04,114.56,72.32,90,85,1.83,CN,1592577775
104,Baruun-Urt,46.68,113.28,67.28,58,100,4.63,MN,1592577775
105,Butembo,0.15,29.28,63.97,100,34,1.39,CD,1592577776
106,Caohai,26.87,104.28,62.2,97,85,6.02,CN,1592577776
107,Hithadhoo,-0.6,73.08,84.96,70,94,1.99,MV,1592577776
108,Emba,48.83,58.14,74.05,27,0,13.82,KZ,1592577776
109,Paragominas,-2.97,-47.48,86.5,52,82,5.53,BR,1592577777
110,Rāmtek,21.4,79.33,87.8,66,40,4.32,IN,1592577777
111,Pāsighāt,28.07,95.33,80.28,79,31,3.51,IN,1592577777
112,Kumul,42.8,93.45,88.9,16,99,3.13,CN,1592577543
113,Ibrā’,22.69,58.53,96.22,31,32,15.14,OM,1592577778
114,Fortuna,40.6,-124.16,55.99,93,90,3.36,US,1592577778
115,Talnakh,69.49,88.4,48.2,76,40,17.9,RU,1592577778
116,Sinnamary,5.38,-52.95,82.67,77,46,8.19,GF,1592577779
117,Mount Gambier,-37.83,140.77,50.0,93,90,11.41,AU,1592577779
118,Dakar,14.69,-17.44,84.2,74,96,16.11,SN,1592577779
119,Praia,14.92,-23.51,84.2,58,20,20.8,CV,1592577780
120,Limbang,4.75,115.0,82.4,83,75,4.7,MY,1592577780
121,Okitipupa,6.5,4.78,85.89,62,83,7.23,NG,1592577780
122,Calama,-22.47,-68.93,59.0,8,0,20.8,CL,1592577781
123,Luwuk,-0.95,122.79,77.65,80,61,5.79,ID,1592577781
124,Faya,18.39,42.45,80.6,44,40,11.41,SA,1592577781
125,Naryan-Mar,67.67,53.09,43.97,70,100,15.79,RU,1592577782
126,Asău,46.43,26.4,73.99,63,31,2.64,RO,1592577782
127,Nuuk,64.18,-51.72,35.6,100,90,16.11,GL,1592577782
128,Tairua,-37.02,175.85,55.99,91,5,5.32,NZ,1592577783
129,Port Moresby,-9.44,147.18,78.8,88,40,17.22,PG,1592577783
130,Gonbad-e Kāvūs,37.25,55.17,96.8,37,0,4.7,IR,1592577763
131,Gamba,-2.65,10.0,76.5,78,83,8.3,GA,1592577783
132,Kabare,-2.47,28.82,69.8,68,53,4.21,CD,1592577784
133,Makassar,-5.14,119.42,80.6,88,20,1.12,ID,1592577532
134,Cherskiy,68.75,161.3,68.22,44,72,2.55,RU,1592577784
135,Hong Kong,22.29,114.16,84.0,79,90,5.99,HK,1592577568
136,Torbay,47.67,-52.73,63.0,87,90,11.41,CA,1592577785
137,Nova Prata,-28.78,-51.61,75.0,56,99,6.46,BR,1592577549
138,Korla,41.76,86.15,84.0,48,34,18.28,CN,1592577785
139,Lorengau,-2.02,147.27,82.17,74,8,4.18,PG,1592577786
140,Grindavik,63.84,-22.43,55.4,66,75,5.82,IS,1592577786
141,Chicama,-7.84,-79.15,71.78,58,1,8.37,PE,1592577786
142,Ostrovnoy,68.05,39.51,43.2,73,100,24.92,RU,1592577787
143,Kattivākkam,13.22,80.32,91.4,63,40,13.87,IN,1592577787
144,Iqaluit,63.75,-68.51,39.2,80,90,10.29,CA,1592577787
145,Kaseda-shirakame,31.42,130.32,72.99,81,87,5.95,JP,1592577787
146,Kalmunai,7.42,81.82,84.92,74,99,4.99,LK,1592577787
147,Tasiilaq,65.61,-37.64,39.2,93,75,14.99,GL,1592577788
148,Thessalon,46.25,-83.57,75.2,50,1,3.36,CA,1592577725
149,Warrington,53.39,-2.58,59.0,82,75,16.11,GB,1592577789
150,Kawalu,-7.38,108.21,73.29,93,100,0.81,ID,1592577789
151,Rovaniemi,66.5,25.72,60.8,44,0,10.29,FI,1592577789
152,Saint Paul Harbor,57.79,-152.41,42.8,87,20,3.36,US,1592577790
153,Vardø,70.37,31.11,48.2,57,75,20.8,NO,1592577790
154,Airai,-8.93,125.41,57.43,100,98,3.8,TL,1592577790
155,Atar,20.52,-13.05,108.19,10,0,10.22,MR,1592577791
156,Bafia,4.75,11.23,77.83,88,95,3.98,CM,1592577791
157,Saskylakh,71.92,114.08,70.9,46,48,5.99,RU,1592577791
158,Pokhara,28.23,83.98,73.74,83,100,1.19,NP,1592577792
159,Caravelas,-17.71,-39.25,80.04,67,17,10.89,BR,1592577792
160,Kamenka,51.32,42.77,84.99,41,1,7.0,RU,1592577792
161,Los Llanos de Aridane,28.66,-17.92,78.8,65,20,13.87,ES,1592577793
162,Ayan,56.45,138.17,42.39,91,66,3.15,RU,1592577793
163,Karaton,-6.34,106.1,78.8,83,40,5.82,ID,1592577794
164,Mount Isa,-20.73,139.5,73.4,40,90,3.36,AU,1592577794
165,Port Blair,11.67,92.75,83.32,81,100,10.56,IN,1592577794
166,Cabo San Lucas,22.89,-109.91,86.0,30,5,7.56,MX,1592577588
167,Luba,3.46,8.55,84.2,79,40,10.29,GQ,1592577795
168,Nyanguge,-2.55,33.2,78.8,54,20,8.05,TZ,1592577796
169,Departamento de Maldonado,-34.67,-54.92,61.0,87,35,10.29,UY,1592577796
170,Ballina,-28.87,153.57,59.0,93,75,8.05,AU,1592577797
171,Rafrāf,37.19,10.18,89.6,35,20,11.41,TN,1592577797
172,Kavieng,-2.57,150.8,82.18,76,3,4.29,PG,1592577798
173,Kenai,60.55,-151.26,48.2,81,90,10.29,US,1592577798
174,Tual,-5.67,132.75,80.85,79,50,22.46,ID,1592577798
175,Mahibadhoo,3.78,72.97,84.54,76,3,8.77,MV,1592577799
176,Tuatapere,-46.13,167.68,39.0,83,95,3.0,NZ,1592577799
177,Port Elizabeth,-33.92,25.57,78.8,24,0,6.93,ZA,1592577799
178,Finschhafen,-6.6,147.87,79.29,77,0,7.23,PG,1592577799
179,Bozoum,6.32,16.38,81.19,74,96,0.49,CF,1592577800
180,Laramie,41.31,-105.59,53.01,70,1,29.97,US,1592577643
181,Monroe,43.15,-77.68,80.01,57,20,6.93,US,1592577722
182,Alice Springs,-23.7,133.88,53.6,37,0,2.13,AU,1592577801
183,Hervey Bay,-25.3,152.85,62.01,89,71,4.0,AU,1592577801
184,Dingzhou,38.51,115.0,75.2,50,96,4.47,CN,1592577802
185,Willmar,45.12,-95.04,62.6,88,1,4.7,US,1592577802
186,Manzhouli,49.6,117.43,64.35,63,95,5.88,CN,1592577802
187,Abu Kamal,34.45,40.92,94.42,12,0,11.65,SY,1592577803
188,Villamontes,-21.25,-63.5,83.66,36,0,2.95,BO,1592577803
189,Agbor,6.25,6.19,78.76,89,100,2.24,NG,1592577803
190,Lucapa,-8.42,20.74,84.18,20,28,1.86,AO,1592577804
191,Rawson,-43.3,-65.1,54.52,45,11,27.6,AR,1592577804
192,Mier,26.43,-99.15,86.0,73,27,3.0,MX,1592577804
193,Kasongo-Lunda,-6.47,16.82,88.97,22,76,4.45,CD,1592577804
194,Dudinka,69.41,86.18,48.2,76,40,17.9,RU,1592577805
195,Iquique,-20.22,-70.14,64.4,59,90,4.7,CL,1592577805
196,Poum,-20.23,164.02,72.82,75,1,8.52,NC,1592577805
197,Kulhudhuffushi,6.62,73.07,84.36,79,36,12.39,MV,1592577806
198,La Ronge,55.1,-105.28,41.0,93,90,10.29,CA,1592577806
199,Kajaani,64.23,27.73,71.6,53,38,3.36,FI,1592577807
200,São José da Coroa Grande,-8.9,-35.15,77.88,85,88,16.11,BR,1592577807
201,Akhtubinsk,48.28,46.17,91.04,24,82,11.12,RU,1592577807
202,Jacareacanga,-6.22,-57.75,88.77,47,36,5.91,BR,1592577808
203,Geraldton,-28.77,114.6,51.8,76,0,8.05,AU,1592577655
204,Whithorn,18.26,-78.04,88.0,66,20,10.29,JM,1592577808
205,Maniitsoq,65.42,-52.9,41.68,82,12,11.16,GL,1592577808
206,Cockburn Town,21.46,-71.14,82.58,79,5,16.73,TC,1592577809
207,Necochea,-38.55,-58.74,55.99,70,100,11.01,AR,1592577810
208,Mafinga,-7.25,35.07,80.53,34,33,1.9,TZ,1592577810
209,Bengkulu,-3.8,102.27,78.26,86,68,5.73,ID,1592577810
210,Pulandian,39.4,121.97,75.2,57,44,4.47,CN,1592577810
211,Owando,-0.48,15.9,88.86,39,100,3.02,CG,1592577810
212,La Rioja,42.25,-2.5,80.6,34,44,3.36,ES,1592577811
213,Bukene,-4.23,32.88,80.29,37,79,3.58,TZ,1592577811
214,Locri,38.24,16.26,79.0,57,0,5.82,IT,1592577811
215,Hualmay,-11.1,-77.61,67.3,66,1,8.46,PE,1592577811
216,Lodja,-3.48,23.43,90.12,29,81,2.46,CD,1592577812
217,Saint George,37.1,-113.58,73.99,19,1,13.87,US,1592577812
218,Hambantota,6.12,81.12,87.8,66,40,10.29,LK,1592577813
219,Serebryansk,49.69,83.29,57.2,82,90,4.47,KZ,1592577813
220,Belaya Gora,68.53,146.42,71.82,38,22,4.9,RU,1592577813
221,Nago,26.59,127.98,82.4,94,40,12.75,JP,1592577814
222,Villazón,-22.09,-65.59,53.47,31,0,8.48,BO,1592577814
223,Kamaishi,39.27,141.88,64.04,86,100,2.33,JP,1592577814
224,Champerico,14.3,-91.92,82.4,74,20,3.71,GT,1592577815
225,Faanui,-16.48,-151.75,79.95,78,20,5.61,PF,1592577815
226,Hirara,24.8,125.28,83.95,86,94,16.55,JP,1592577815
227,Namatanai,-3.67,152.43,80.1,81,15,5.5,PG,1592577816
228,Margate,51.38,1.39,66.99,67,81,5.99,GB,1592577816
229,Ponta do Sol,32.67,-17.1,75.2,64,40,18.34,PT,1592577816
230,Santa Rosa,14.31,121.11,81.0,94,90,5.82,PH,1592577817
231,Amurzet,47.7,131.1,52.16,93,6,4.36,RU,1592577817
232,Phan Thiet,10.93,108.1,80.64,85,100,1.79,VN,1592577818
233,Ouésso,1.61,16.05,82.9,70,72,1.92,CG,1592577818
234,Fairbanks,64.84,-147.72,57.2,93,90,1.95,US,1592577602
235,Lagoa,39.05,-27.98,65.08,89,9,17.67,PT,1592577819
236,Kennett,36.24,-90.06,84.2,51,1,5.82,US,1592577819
237,Alta Floresta,-9.88,-56.09,84.34,45,5,7.09,BR,1592577819
238,Pão de Açúcar,-9.75,-37.44,81.99,72,37,13.85,BR,1592577820
239,Örnsköldsvik,63.29,18.72,66.2,55,1,10.29,SE,1592577664
240,Kaitangata,-46.28,169.85,39.61,84,100,8.99,NZ,1592577821
241,Shediac,46.22,-64.54,82.4,48,5,16.11,CA,1592577523
242,Lyuban',52.8,28.0,78.67,72,14,7.16,BY,1592577821
243,San Juan,-31.54,-68.54,62.08,29,0,12.46,AR,1592577638
244,Katsuura,35.13,140.3,68.0,93,94,15.73,JP,1592577822
245,Makakilo City,21.35,-158.09,77.0,83,40,3.36,US,1592577822
246,Carndonagh,55.25,-7.27,57.2,100,75,11.41,IE,1592577823
247,Aloleng,16.13,119.78,81.93,82,100,5.41,PH,1592577823
248,Thompson,55.74,-97.86,37.4,100,90,9.17,CA,1592577823
249,Qasigiannguit,68.82,-51.19,55.4,30,40,19.46,GL,1592577823
250,Puerto del Rosario,28.5,-13.86,78.8,65,20,19.46,ES,1592577733
251,Garden City,42.33,-83.33,84.0,47,20,4.7,US,1592577824
252,Dikson,73.51,80.55,33.85,91,0,7.54,RU,1592577824
253,Hilo,19.73,-155.09,73.4,83,90,4.7,US,1592577825
254,Yulara,-25.24,130.99,57.2,44,0,8.05,AU,1592577825
255,Tolaga Bay,-38.37,178.3,57.79,90,100,18.75,NZ,1592577826
256,Yangi Marg`ilon,40.43,71.72,86.0,22,19,4.7,UZ,1592577826
257,Morro Bay,35.37,-120.85,57.99,98,44,2.44,US,1592577827
258,Poya,-21.35,165.15,67.82,86,7,5.75,NC,1592577827
259,Almaznyy,48.04,40.05,82.4,30,20,15.66,RU,1592577827
260,Imbituba,-28.24,-48.67,78.8,57,1,3.36,BR,1592577828
261,Quatre Cocos,-20.21,57.76,72.0,71,100,8.99,MU,1592577828
262,Najrān,17.49,44.13,100.4,11,40,6.93,SA,1592577724
263,Agropoli,40.35,15.0,82.4,34,40,6.06,IT,1592577829
264,Mattru,7.62,-11.83,75.74,95,98,3.62,SL,1592577829
265,Ségou,13.43,-6.22,99.34,28,0,4.23,ML,1592577829
266,Mahajanga,-15.72,46.32,86.0,42,20,10.29,MG,1592577829
267,Shaowu,27.34,117.48,76.78,85,90,0.67,CN,1592577830
268,Alyangula,-13.85,136.42,73.4,94,40,3.36,AU,1592577830
269,Vaitape,-16.52,-151.75,80.78,77,19,6.02,PF,1592577831
270,Esperance,-33.87,121.9,46.4,81,40,6.93,AU,1592577786
271,Cidreira,-30.18,-50.21,64.09,81,81,5.7,BR,1592577744
272,Shitanjing,39.23,106.34,77.5,23,26,10.31,CN,1592577832
273,Vestmanna,62.16,-7.17,57.2,71,70,9.17,FO,1592577833
274,Lukovetskiy,64.3,41.92,48.2,81,75,13.42,RU,1592577833
275,Tieling,42.29,123.84,73.81,48,38,5.08,CN,1592577543
276,Taungdwingyi,20.02,95.55,77.07,88,49,11.48,MM,1592577833
277,Zaragoza,41.66,-0.88,82.0,42,20,2.24,ES,1592577834
278,Codrington,-38.27,141.97,50.9,86,71,12.62,AU,1592577834
279,Yar-Sale,66.83,70.83,46.99,55,6,12.17,RU,1592577834
280,Conceição do Araguaia,-8.26,-49.26,86.29,48,0,7.61,BR,1592577835
281,Ahipara,-35.17,173.17,56.71,82,100,16.11,NZ,1592577835
282,Mackenzie,55.3,-123.17,57.2,76,75,3.36,CA,1592577835
283,Innisfail,-17.53,146.03,66.72,86,79,7.16,AU,1592577836
284,Adrar,20.5,-10.07,106.65,9,0,12.08,MR,1592577836
285,Charters Towers,-20.1,146.27,59.0,82,6,6.24,AU,1592577836
286,Aklavik,68.22,-135.01,51.8,76,75,8.05,CA,1592577837
287,Bama,11.52,13.69,95.58,33,46,4.94,NG,1592577838
288,Prince Rupert,54.32,-130.32,57.2,93,90,5.5,CA,1592577838
289,Grand Gaube,-20.01,57.66,72.0,71,92,8.99,MU,1592577839
290,Andenes,69.31,16.12,48.2,66,0,13.87,NO,1592577839
291,Mount Vernon,40.91,-73.84,79.0,60,40,4.7,US,1592577791
292,Okato,-39.2,173.88,48.0,90,5,8.01,NZ,1592577840
293,Tazovsky,67.47,78.7,44.82,59,64,10.98,RU,1592577840
294,Tornio,65.85,24.15,66.2,37,0,12.75,FI,1592577840
295,Benghazi,32.12,20.07,84.22,36,0,7.49,LY,1592577841
296,Yerbogachën,61.28,108.01,56.88,62,0,2.77,RU,1592577841
297,Novy Urengoy,66.08,76.63,47.32,53,30,10.07,RU,1592577842
298,Sitka,57.05,-135.33,51.8,87,75,2.59,US,1592577842
299,Te Anau,-45.42,167.72,35.78,85,89,0.94,NZ,1592578204
300,Samarai,-10.62,150.67,78.84,84,49,14.03,PG,1592578396
301,Bonthe,7.53,-12.51,79.97,82,99,12.73,SL,1592578397
302,Waingapu,-9.66,120.26,76.1,78,97,12.24,ID,1592578399
303,Osa,57.28,55.46,64.53,65,9,3.6,RU,1592578400
304,Fare,-16.7,-151.02,80.42,79,23,7.05,PF,1592578401
305,Maumere,-8.62,122.21,79.99,81,65,11.5,ID,1592578403
306,Saint-Augustin,51.23,-58.65,52.02,67,100,11.48,CA,1592578405
307,Djenné,13.91,-4.55,98.29,31,79,3.27,ML,1592578407
308,Karratha,-20.74,116.85,71.55,51,0,2.98,AU,1592578408
309,Tessalit,20.2,1.01,106.0,11,24,9.78,ML,1592578411
310,Sistranda,63.73,8.83,73.4,53,0,12.75,NO,1592578412
311,Warri,5.52,5.75,84.45,71,99,9.48,NG,1592578413
312,Pitkyaranta,61.57,31.48,67.28,61,29,11.43,RU,1592578416
313,Clyde River,70.47,-68.59,33.8,80,75,5.82,CA,1592578417
314,Kota Kinabalu,5.97,116.07,82.0,94,40,3.36,MY,1592578419
315,Warud,21.47,78.27,86.58,61,94,4.32,IN,1592578420
316,Husavik,66.04,-17.34,57.2,58,20,10.29,IS,1592578421
317,Waddān,29.16,16.14,106.61,7,0,8.03,LY,1592578422
318,Mayo,38.89,-76.51,79.0,74,75,6.93,US,1592578423
319,Ca Mau,9.18,105.15,81.12,82,100,3.87,VN,1592578426
320,Lobito,-12.35,13.55,78.8,78,20,6.93,AO,1592578427
321,Solnechnyy,50.72,136.63,47.57,91,100,4.61,RU,1592578429
322,Okhotsk,59.38,143.3,43.52,95,61,4.05,RU,1592578430
323,Richards Bay,-28.78,32.04,63.61,81,0,0.72,ZA,1592578431
324,Puerto Madero,14.72,-92.42,82.4,83,40,5.82,MX,1592578432
325,Isangel,-19.55,169.27,72.95,80,97,12.66,VU,1592578434
326,San Quintín,30.48,-115.95,62.11,74,98,7.16,MX,1592578435
327,Upernavik,72.79,-56.15,36.41,83,0,9.71,GL,1592578436
328,Nantucket,41.28,-70.1,72.0,78,90,12.75,US,1592578413
329,Otukpo,7.19,8.13,79.14,77,96,2.93,NG,1592578440
330,Port Hardy,50.7,-127.42,60.8,93,90,5.32,CA,1592578442
331,Tiznit Province,29.58,-9.5,76.87,49,0,11.9,MA,1592578443
332,Walvis Bay,-22.96,14.51,89.6,21,0,13.87,NA,1592578174
333,Tautira,-17.73,-149.15,75.2,88,20,3.36,PF,1592578447
334,Muros,42.78,-9.06,64.0,76,2,14.0,ES,1592578448
335,Northam,51.03,-4.22,61.0,80,75,7.0,GB,1592578449
336,Tete,-16.16,33.59,78.8,47,40,3.36,MZ,1592578451
337,Minas,-34.38,-55.24,61.0,87,34,10.29,UY,1592578452
338,Agüimes,27.91,-15.45,78.8,57,20,26.4,ES,1592578453
339,Pendleton,45.67,-118.79,64.99,63,1,5.82,US,1592578454
340,Luena,-11.78,19.92,73.72,31,0,5.12,AO,1592578456
341,Avera,33.19,-82.53,78.8,94,75,3.36,US,1592578458
342,Solano,38.23,-121.95,71.01,72,1,17.22,US,1592578216
343,Schagen,52.79,4.8,73.0,72,75,11.41,NL,1592578461
344,Yudong,29.39,106.52,84.0,69,89,15.66,CN,1592578462
345,Gari,59.43,62.35,59.38,51,72,3.91,RU,1592578464
346,Arrondissement de Nevers,46.92,3.33,69.8,56,68,6.93,FR,1592578465
347,Andria,41.23,16.29,79.0,60,69,3.0,IT,1592578466
348,Oranjemund,-28.55,16.43,70.93,35,0,6.31,NA,1592578468
349,Troitsko-Pechorsk,62.71,56.2,62.56,58,100,7.49,RU,1592578469
350,Guerrero Negro,27.98,-114.06,66.09,72,0,13.8,MX,1592578470
351,Brae,60.4,-1.35,62.6,77,100,6.93,GB,1592578471
352,Galich,58.38,42.35,73.83,72,86,7.99,RU,1592578473
353,Aketi,2.74,23.78,87.8,48,64,2.77,CD,1592578474
354,Rio Grande,-32.03,-52.1,62.6,72,68,5.82,BR,1592578350
355,Krutinka,56.01,71.51,47.64,77,50,7.58,RU,1592578477
356,Banikoara,11.3,2.44,81.99,61,100,4.85,BJ,1592578478
357,Erenhot,43.65,111.98,81.16,25,70,12.53,CN,1592578480
358,Kahului,20.89,-156.47,75.2,69,1,11.41,US,1592578481
359,Severo-Kuril'sk,50.68,156.12,41.7,92,100,15.97,RU,1592578482
360,Buguruslan,53.66,52.44,64.47,70,4,6.31,RU,1592578484
361,Vestmannaeyjar,63.44,-20.27,53.6,76,20,14.99,IS,1592578485
362,Kamari,36.8,25.82,84.0,44,0,4.0,GR,1592578486
363,Nālūt,30.33,10.85,104.79,7,0,18.48,LY,1592578489
364,Camabatela,-8.19,15.38,81.54,22,46,2.13,AO,1592578490
365,Al Bardīyah,31.76,25.09,79.18,44,0,22.41,LY,1592578491
366,Tynda,55.17,124.72,51.84,93,100,7.78,RU,1592578493
367,Bonnyville,54.27,-110.73,48.2,76,75,2.24,CA,1592578494
368,Padang,-0.95,100.35,79.75,77,100,3.51,ID,1592578495
369,Casimcea,44.73,28.37,78.8,88,20,5.82,RO,1592578496
370,Rohatyn,49.41,24.61,73.4,69,75,8.95,UA,1592578498
371,Nanortalik,60.14,-45.24,39.65,87,100,4.43,GL,1592578500
372,Tupanatinga,-8.75,-37.34,75.45,74,84,15.23,BR,1592578502
373,Buin,-33.73,-70.75,50.0,93,90,3.36,CL,1592578504
374,Meadow Lake,34.8,-106.54,73.99,16,40,9.17,US,1592578505
375,Chaykovskiy,56.77,54.11,72.0,39,4,1.99,RU,1592578507
376,Dongobesh,-4.07,35.38,64.08,65,83,6.11,TZ,1592578508
377,Ḩasanābād,36.55,61.05,98.6,10,0,9.93,IR,1592578509
378,Kang,-23.68,22.79,65.44,27,0,7.0,BW,1592578511
379,Cradock,-32.16,25.62,62.06,30,0,12.17,ZA,1592578512
380,Susanville,40.42,-120.65,57.0,29,1,3.36,US,1592578514
381,Jiangyou,31.77,104.72,78.17,62,100,3.0,CN,1592578515
382,Doka,13.52,35.77,87.55,46,84,8.5,SD,1592578516
383,Araouane,18.9,-3.53,107.44,16,71,5.35,ML,1592578518
384,Vanimo,-2.67,141.3,79.39,82,29,3.2,PG,1592578519
385,Santa Helena de Goiás,-17.81,-50.6,78.28,49,17,8.21,BR,1592578520
386,Benjamin Constant,-4.38,-70.03,82.4,78,20,2.24,BR,1592578385
387,Severomuysk,56.15,113.43,43.3,79,33,1.05,RU,1592578523
388,Keuruu,62.27,24.7,75.99,56,40,10.29,FI,1592578526
389,Sena Madureira,-9.07,-68.66,88.36,52,37,2.84,BR,1592578528
390,Broome,42.25,-75.83,75.99,73,90,4.7,US,1592578531
391,Nome,64.5,-165.41,55.0,87,40,4.7,US,1592578533
392,Sarany,58.5,58.88,58.77,55,15,5.26,RU,1592578535
393,Kiama,-34.68,150.87,59.0,78,36,1.99,AU,1592578536
394,Pekalongan,-6.89,109.68,60.01,65,99,3.36,ID,1592578538
395,Placerville,38.73,-120.8,73.99,32,1,5.82,US,1592578539
396,Port Lincoln,-34.73,135.87,54.68,77,0,12.68,AU,1592578540
397,Sergeevka,53.88,67.42,52.21,61,48,5.01,KZ,1592578543
398,Jardim,-21.48,-56.14,82.8,47,0,11.12,BR,1592578457
399,Mana,5.66,-53.78,82.72,77,28,8.03,GF,1592578548
400,Aleksandrov Gay,50.15,48.57,80.29,34,0,11.41,RU,1592578549
401,Yetkul',54.82,61.59,66.2,29,49,6.71,RU,1592578552
402,Nefteyugansk,61.1,72.6,50.0,57,20,4.47,RU,1592578553
403,Chimoré,-16.98,-65.13,79.36,81,70,4.47,BO,1592578555
404,Taoudenni,22.68,-3.98,116.02,5,0,9.15,ML,1592578556
405,Pingliang,35.54,106.69,66.06,70,94,4.05,CN,1592578558
406,Salalah,17.02,54.09,86.0,84,75,8.05,OM,1592578559
407,Ngunguru,-35.62,174.5,57.0,88,68,11.99,NZ,1592578561
408,Bireun,5.2,96.7,79.74,79,91,3.58,ID,1592578562
409,Toyooka,35.53,134.83,65.3,89,97,7.78,JP,1592578564
410,Shingū,33.73,135.98,63.81,89,50,7.18,JP,1592578566
411,Riviere-au-Renard,49.0,-64.4,69.8,64,40,14.99,CA,1592578569
412,Bari,41.12,16.85,75.2,53,20,8.05,IT,1592578571
413,Torata,-17.08,-70.84,64.87,27,1,5.14,PE,1592578576
414,Mosetse,-20.75,26.65,66.29,42,27,12.95,BW,1592578577
415,São Francisco,-15.95,-44.86,80.69,53,73,4.32,BR,1592578579
416,Yeniseysk,58.45,92.17,58.19,95,96,2.93,RU,1592578580
417,Eenhana,-17.47,16.33,78.8,21,0,8.05,NA,1592578581
418,Carutapera,-1.2,-46.02,82.54,81,0,7.49,BR,1592578583
419,Leh,34.17,77.58,57.54,32,64,4.81,IN,1592578585
420,Kunashak,55.7,61.55,66.2,29,54,6.71,RU,1592578586
421,Falmouth,50.15,-5.07,60.8,87,87,13.87,GB,1592578587
422,Nizwá,22.93,57.53,101.3,19,73,9.24,OM,1592578589
423,Noumea,-22.28,166.46,66.2,88,90,8.05,NC,1592578591
424,Bilibino,68.05,166.44,61.32,52,93,3.53,RU,1592578593
425,Paro,27.43,89.41,63.19,70,89,0.47,BT,1592578595
426,Kiryat Gat,31.61,34.76,81.0,33,0,15.99,IL,1592578597
427,Suda,59.15,37.56,64.4,88,90,6.71,RU,1592578599
428,Olafsvik,64.89,-23.71,51.76,68,6,8.23,IS,1592578600
429,Port Macquarie,-31.43,152.92,54.0,97,46,5.46,AU,1592578602
430,Boddam,57.47,-1.78,64.0,93,90,9.17,GB,1592578603
431,Mountain Home,43.13,-115.69,57.2,67,1,9.17,US,1592578606
432,Savannah Bight,16.45,-85.85,81.95,75,89,14.81,HN,1592578608
433,Anloga,5.79,0.9,84.2,74,40,10.29,GH,1592578609
434,Fort Nelson,58.81,-122.7,57.2,87,75,3.13,CA,1592578611
435,Viedma,-40.81,-63.0,57.36,41,0,27.76,AR,1592578612
436,Shenjiamen,29.96,122.3,68.49,90,100,3.71,CN,1592578614
437,Ojinaga,29.57,-104.42,87.8,31,1,6.93,MX,1592578615
438,Charter Township of Clinton,42.59,-82.92,82.99,54,0,3.96,US,1592578617
439,Leningradskiy,69.38,178.42,41.77,71,65,2.57,RU,1592578618
440,São Gabriel,-30.34,-54.32,70.02,83,25,9.4,BR,1592578620
441,Maputo,-25.97,32.59,69.8,60,40,10.29,MZ,1592578621
442,Bubaque,11.28,-15.83,82.29,79,94,11.74,GW,1592578623
443,Boa Vista,2.82,-60.67,80.6,78,75,8.05,BR,1592578508
444,Khāsh,28.22,61.22,90.63,11,30,19.73,IR,1592578626
445,Ambo,-10.13,-76.2,68.0,82,20,4.7,PE,1592578628
446,San Fernando del Valle de Catamarca,-28.47,-65.79,63.0,53,57,1.99,AR,1592578630
447,Gigmoto,13.78,124.39,81.03,81,75,7.16,PH,1592578631
448,Chivay,-15.64,-71.6,55.8,27,0,4.09,PE,1592578633
449,Kralendijk,12.15,-68.27,86.0,70,40,18.34,BQ,1592578635
450,Fukuechō,32.69,128.84,71.73,76,20,18.57,JP,1592578636
451,Dalaoig,17.93,121.72,77.63,91,2,3.04,PH,1592578638
452,Kieta,-6.22,155.63,78.85,79,29,3.27,PG,1592578639
453,Rayong,12.83,101.43,82.4,83,20,4.7,TH,1592578641
454,Waverley,-25.7,28.26,59.0,35,0,2.13,ZA,1592578642
455,Paredon,16.03,-93.87,84.04,67,73,3.18,MX,1592578643
456,Constitución,-35.33,-72.42,56.57,84,34,2.59,CL,1592578645
457,Qiongshan,20.01,110.35,84.2,83,20,8.95,CN,1592578646
458,Qaqortoq,60.72,-46.03,48.2,57,75,5.82,GL,1592578564
459,Pevek,69.7,170.31,42.73,65,30,5.19,RU,1592578649
460,Pak Phanang,8.35,100.2,81.73,80,100,6.26,TH,1592578650
461,Morgan City,29.7,-91.21,84.0,74,1,3.36,US,1592578653
462,Camargo,27.67,-105.17,81.9,30,24,3.02,MX,1592578655
463,Upata,8.01,-62.4,84.0,76,74,6.71,VE,1592578656
464,Marawi,8.0,124.29,77.0,89,100,5.99,PH,1592578658
465,Valdosta,30.83,-83.28,84.0,69,1,4.7,US,1592578501
466,Buraidah,26.33,43.98,104.0,15,0,9.17,SA,1592578661
467,Mānsa,29.98,75.38,103.89,15,45,3.78,IN,1592578662
468,Bridlington,54.08,-0.19,64.99,82,66,13.87,GB,1592578663
469,Novyy Urgal,51.07,132.56,51.15,69,87,3.33,RU,1592578665
470,Parrita,9.52,-84.32,71.6,73,100,8.05,CR,1592578666
471,Juneau,58.3,-134.42,54.0,93,90,8.05,US,1592578575
472,Waipawa,-41.41,175.52,55.0,96,67,2.98,NZ,1592578669
473,Alofi,-19.06,-169.92,69.8,77,3,9.17,NU,1592578669
474,Makokou,0.57,12.86,78.69,83,96,2.26,GA,1592578672
475,Saint-François,46.42,3.91,71.6,46,75,9.17,FR,1592578674
476,Pizarro,4.95,-77.37,83.53,71,20,3.6,CO,1592578675
477,Moroni,-11.7,43.26,84.2,62,20,10.29,KM,1592578677
478,Homer,59.64,-151.55,48.99,76,20,5.82,US,1592578678
479,Tarko-Sale,64.92,77.78,52.0,53,85,15.05,RU,1592578681
480,Clarence Town,-32.58,151.78,55.0,93,2,2.89,AU,1592578682
481,Aksu,41.12,80.26,70.41,33,34,16.84,CN,1592578684
482,Fort-Shevchenko,44.51,50.26,85.46,36,99,25.99,KZ,1592578686
483,Ladário,-19.0,-57.6,84.2,54,6,8.05,BR,1592578688
484,San Carlos,9.66,-68.58,78.42,90,69,3.65,VE,1592578418
485,Jiaojiang,28.68,121.44,73.0,79,100,3.67,CN,1592578692
486,Delmiro Gouveia,-9.39,-38.0,77.0,83,75,11.41,BR,1592578693
487,Huarmey,-10.07,-78.15,68.61,64,0,8.1,PE,1592578642
488,Sayyan,15.17,44.32,74.28,34,89,5.3,YE,1592578696
489,Cap Malheureux,-19.98,57.61,72.0,70,91,10.0,MU,1592578698
490,Salina,38.84,-97.61,68.0,88,90,6.93,US,1592578699
491,Kavaratti,10.57,72.64,84.78,77,100,13.71,IN,1592578700
492,Raudeberg,61.99,5.14,86.0,47,20,10.29,NO,1592578702
493,Verkhnetulomskiy,68.61,31.8,50.0,61,75,8.95,RU,1592578703
494,Mitsamiouli,-11.38,43.28,84.2,62,20,10.29,KM,1592578704
495,Pacific Grove,36.62,-121.92,55.4,87,90,5.82,US,1592578706
496,Dubrovka,53.69,33.51,78.8,44,75,11.18,RU,1592578707
497,Beatrice,40.27,-96.75,66.2,88,1,9.17,US,1592578708
498,Tubualá,9.52,-79.03,80.6,88,75,3.36,PA,1592578709
499,Ulaanbaatar,47.91,106.88,66.2,55,40,20.13,MN,1592578518
500,Wenling,28.37,121.36,73.0,96,100,5.5,CN,1592578715
501,Nishihara,26.18,127.76,84.2,83,75,13.87,JP,1592578716
502,Taltal,-25.4,-70.48,65.41,51,26,3.58,CL,1592578717
503,Vanavara,60.34,102.28,60.55,64,33,6.8,RU,1592578719
504,At-Bashi,41.17,75.81,55.4,38,19,7.16,KG,1592578720
505,Ouro Sogui,15.61,-13.32,103.35,26,0,10.16,SN,1592578721
506,Iracoubo,5.48,-53.2,82.27,78,35,8.01,GF,1592578722
507,Tumpat,6.2,102.17,78.8,94,40,3.36,MY,1592578724
508,Lompoc,34.64,-120.46,57.99,93,90,3.36,US,1592578595
509,Goldsboro,35.38,-77.99,80.01,74,40,4.36,US,1592578439
510,Sakakah,29.97,40.21,95.0,10,0,16.11,SA,1592578728
511,Huilong,31.81,121.66,75.0,86,85,5.12,CN,1592578729
512,Avon,41.45,-82.04,75.0,64,20,5.82,US,1592578731
513,Prieska,-29.66,22.75,65.12,27,0,7.65,ZA,1592578732
514,Zhigalovo,54.81,105.16,57.54,78,15,2.89,RU,1592578734
515,Jumla,29.27,82.18,63.88,72,89,2.1,NP,1592578735
516,Affery,6.32,-3.96,79.7,91,59,2.73,CI,1592578736
517,Chabahar,25.29,60.64,86.76,77,14,11.12,IR,1592578737
518,Khovd,48.01,91.64,68.77,25,100,5.53,MN,1592578739
519,Riyadh,24.69,46.72,107.6,7,12,12.75,SA,1592578684
520,Roald,62.58,6.13,78.01,60,99,23.04,NO,1592578741
521,Grand-Santi,4.25,-54.38,80.35,92,24,2.98,GF,1592578743
522,Lehtmetsa,59.32,25.35,77.0,38,20,13.87,EE,1592578744
523,São João da Barra,-21.64,-41.05,82.4,61,100,6.93,BR,1592578745
524,Kununurra,-15.77,128.73,64.4,37,2,10.25,AU,1592578746
525,Bandrele,-12.91,45.19,80.6,65,100,18.34,YT,1592578748
526,Chute-aux-Outardes,49.12,-68.4,73.4,49,1,8.05,CA,1592578749
527,Port-Gentil,-0.72,8.78,82.4,65,20,6.93,GA,1592578753
528,Colón,9.36,-79.9,81.0,88,87,7.0,PA,1592578464
529,Yumen,40.28,97.2,84.22,14,100,9.82,CN,1592578757
530,Puerto Colombia,10.99,-74.95,84.2,83,75,8.3,CO,1592578609
531,Flinders,-34.58,150.86,59.0,87,35,1.01,AU,1592578759
532,Goderich,43.75,-81.72,75.0,65,0,4.59,CA,1592578761
533,Manmād,20.25,74.45,79.84,75,94,19.51,IN,1592578763
534,Eureka,40.8,-124.16,57.0,100,67,5.95,US,1592578764
535,Palmer,42.16,-72.33,80.01,64,40,3.36,US,1592578724
536,Ţalkhā,31.05,31.38,86.07,31,0,16.93,EG,1592578767
537,Acapulco de Juárez,16.86,-99.89,77.0,88,90,6.93,MX,1592578634
538,Shache,38.42,77.24,77.7,16,0,5.08,CN,1592578769
539,Sangod,24.92,76.28,89.24,39,67,13.44,IN,1592578771
540,Zaysan,47.47,84.87,64.06,38,5,3.94,KZ,1592578774
541,Show Low,34.25,-110.03,68.0,18,1,9.17,US,1592578566
542,Sirte,31.21,16.59,90.91,27,0,15.26,LY,1592578504
543,Kango,0.19,10.1,83.25,67,97,4.09,GA,1592578778
544,Dusetos,55.75,25.85,80.33,54,85,7.09,LT,1592578780
545,Haines Junction,60.75,-137.51,52.54,66,95,3.6,CA,1592578781
546,Worthington,40.09,-83.02,77.0,83,1,5.82,US,1592578784
547,Raja,8.46,25.68,74.64,87,100,2.17,SS,1592578785
548,Alexandria,31.22,29.96,78.8,69,40,13.87,EG,1592578786
549,Dalbandin,28.89,64.41,98.06,8,0,14.25,PK,1592578788
550,Luwingu,-10.26,29.93,69.71,49,87,3.42,ZM,1592578789
551,Muncar,-8.43,114.33,75.43,86,89,1.97,ID,1592578790
552,Ivanovka,42.89,75.08,77.0,44,5,4.47,KG,1592578792
553,Bamnet Narong,15.5,101.69,76.42,88,29,3.2,TH,1592578793
554,Laas,46.62,10.7,62.01,87,75,3.36,IT,1592578795
555,Craig,40.52,-107.55,53.6,50,1,3.36,US,1592578724
556,Pochutla,15.74,-96.47,79.0,78,75,1.77,MX,1592578798
557,Sobolevo,54.43,31.9,79.54,69,100,2.73,RU,1592578799
558,Zagora,30.35,-5.84,97.25,9,0,6.33,MA,1592578801
559,Havelock,34.88,-76.9,82.99,61,90,8.05,US,1592578802
560,Pemangkat,1.17,108.97,79.02,85,100,4.27,ID,1592578804
561,Cuenca,-2.88,-78.98,55.4,100,90,1.52,EC,1592578530
562,Grafton,42.21,-71.69,81.0,64,40,11.41,US,1592578558
563,Tura,25.52,90.22,76.44,96,74,4.29,IN,1592578808
564,Lerwick,60.15,-1.15,62.6,93,90,11.41,GB,1592578531
565,Port Shepstone,-30.74,30.45,66.47,71,0,18.39,ZA,1592578811
566,Lhokseumawe,5.18,97.15,80.06,78,85,4.52,ID,1592578787
567,Corvallis,44.56,-123.26,64.99,100,1,1.86,US,1592578701
568,Akureyri,65.68,-18.09,57.2,58,20,10.29,IS,1592578815
569,Ibanda,-2.8,32.47,78.8,54,20,8.05,TZ,1592578816
